const milk = {
"type": "FeatureCollection",
"name": "milk",
"crs": { "type": "name", "properties": { "name": "urn:ogc:def:crs:EPSG::2449" } },
"features": [
{ "type": "Feature", "properties": { "name": "アイプラザ一宮", "address": "一宮市若竹3丁目1-12", "place": "【おむつ替えスペース】1階多目的トイレ、1階ホワイエ内多目的トイレ、2階多目的トイレ\n<br>【授乳スペース】1階会議室", "tel": "0586-77-6612", "time": "午前8時半〜午後5時【休所・休館日】第3・4月曜日、年末年始", "url": "http://kosodate.city.ichinomiya.aichi.jp/institutions/baby_station/breast_feeding/2006.html" }, "geometry": { "type": "Point", "coordinates": [ 136.82553, 35.28661 ] } },
{ "type": "Feature", "properties": { "name": "西保健センター", "address": "一宮市東五城字備前12（尾西庁舎3階）", "place": "【おむつ替えスペース】尾西庁舎3階男子トイレ、女子トイレ、尾西庁舎3階障害者用トイレ\n<br>【授乳スペース】尾西庁舎3階授乳室", "tel": "0586-63-4833", "time": "午前8時30分〜午後5時15分【休所・休館日】土・日曜日、祝休日、年末年始", "url": "http://kosodate.city.ichinomiya.aichi.jp/institutions/baby_station/breast_feeding/2004.html" }, "geometry": { "type": "Point", "coordinates": [ 136.75344, 35.30861 ] } },
{ "type": "Feature", "properties": { "name": "尾張一宮駅前ビル", "address": "一宮市栄3丁目1-2", "place": "【おむつ替えスペース】3・5・7階南館多目的トイレ、5階南館男性トイレ、5階南館女性トイレ\n<br>【授乳スペース】5階南館授乳室\n【授乳スペース（お湯提供可）】1階南館授乳室、5階図書館　キッズトイレ", "tel": "無し", "time": "午前9時〜午後9時", "url": "http://kosodate.city.ichinomiya.aichi.jp/institutions/baby_station/breast_feeding/1968.html" }, "geometry": { "type": "Point", "coordinates": [ 136.79736, 35.30236 ] } },
{ "type": "Feature", "properties": { "name": "子ども文化広場図書館", "address": "一宮市朝日1丁目6-9", "place": "【おむつ替えスペース】1階多目的トイレ\n<br>【授乳スペース】1階書架コーナー", "tel": "0586-25-1350", "time": "午前9時〜午後5時【休所・休館日】月曜日（祝休日を除く）、祝休日の翌日（土・日・祝休日を除く）、年末年始（12月29日〜1月4日）、特別整理期間、第3木曜日（祝日の場合はその前日）", "url": "http://kosodate.city.ichinomiya.aichi.jp/institutions/baby_station/breast_feeding/1928.html" }, "geometry": { "type": "Point", "coordinates": [ 136.81603, 35.30742 ] } },
{ "type": "Feature", "properties": { "name": "一宮地域文化広場", "address": "一宮市時之島字玉振1-1", "place": "【おむつ替えスペース】1階多目的トイレ\n<br>【授乳スペース】1階ロビー", "tel": "無し", "time": "午前9時〜午後4時30分【休所・休館日】月曜日（休日の場合は翌平日）・年末年始", "url": "http://kosodate.city.ichinomiya.aichi.jp/institutions/baby_station/breast_feeding/2833.html" }, "geometry": { "type": "Point", "coordinates": [ 136.84684, 35.32472 ] } },
{ "type": "Feature", "properties": { "name": "木曽川体育館", "address": "一宮市木曽川町門間字沼間35", "place": "【おむつ替えスペース】1階女子更衣室、1階多目的トイレ\n<br>【授乳スペース】1階女子更衣室", "tel": "0586-86-6600", "time": "午前8時30分〜午後9時【休所・休館日】月曜日、祝休日明け、年末年始", "url": "http://kosodate.city.ichinomiya.aichi.jp/institutions/baby_station/breast_feeding/2001.html" }, "geometry": { "type": "Point", "coordinates": [ 136.7906, 35.3366 ] } },
{ "type": "Feature", "properties": { "name": "北保健センター", "address": "一宮市木曽川町黒田字中沼南ノ切27", "place": "【担当地区（お住いの連区）】葉栗・浅井町・北方町・今伊勢町・木曽川町\n【アクセス】i-バス　木曽川・北方コース　北保健センター停留所\n【おむつ替えスペース】1階〜2階女子トイレ\n<br>【授乳スペース】2階授乳室", "tel": "0586-86-1611", "time": "午前8時30分〜午後5時15分【休所・休館日】土・日曜日、祝休日、年末年始", "url": "http://kosodate.city.ichinomiya.aichi.jp/institutions/baby_station/breast_feeding/2003.html" }, "geometry": { "type": "Point", "coordinates": [ 136.77352, 35.35135 ] } },
{ "type": "Feature", "properties": { "name": "大野極楽寺公園(1)", "address": "一宮市浅井町大野字小屋裏1400", "place": "【おむつ替えスペース】多目的トイレ、管理棟休憩所授乳スペース\r\n<br>【授乳スペース】管理棟休憩所授乳スペース", "tel": "無し", "time": "無し", "url": "http://kosodate.city.ichinomiya.aichi.jp/institutions/baby_station/breast_feeding/2000.html" }, "geometry": { "type": "Point", "coordinates": [ 136.8185, 35.3551 ] } },
{ "type": "Feature", "properties": { "name": "総合体育館", "address": "一宮市光明寺字白山前20", "place": "【おむつ替えスペース】1階北側女子トイレ隣多目的トイレ、1階北側男子トイレ隣多目的トイレ、1階東側女子トイレ、2階エレベーターホール奥多目的トイレ\n<br>【授乳スペース】開いている諸室（控室・来賓室等）を開放", "tel": "0586-53-6300", "time": "午前8時30分〜午後9時【休所・休館日】第1・3水曜日（祝休日を除く）、年末年始", "url": "http://kosodate.city.ichinomiya.aichi.jp/institutions/baby_station/breast_feeding/2012.html" }, "geometry": { "type": "Point", "coordinates": [ 136.7996, 35.3580 ] } }
]
};